{
    "lat": "33.7750",
    "lng": "-122.4167",
    "hostelries": [
        {
            "name": "Nell Gwynne Tavern",
            "latitude": 51.510227,
            "longitude": -0.122841
        },
        {
            "name": "The Understudy",
            "latitude": 51.507668,
            "longitude": -0.113783
        },
        {
            "name": "The Swan at Shakespere's Globe",
            "latitude": 51.508284,
            "longitude": -0.096570
        },
        {
            "name": "Ye Olde Mitre",
            "latitude": 51.518451,
            "longitude": -0.107339
        },
        {
            "name": "The Duke of Sussex",
            "latitude": 51.501142,
            "longitude": -0.110219
        },
        {
            "name": "The Rake",
            "latitude": 51.506176,
            "longitude": -0.091246
        },
        {
            "name": "The Market Porter",
            "latitude": 51.505544,
            "longitude": -0.091246
        },
        {
            "name": "The George Inn",
            "latitude": 51.504386,
            "longitude": -0.090082
        },
        {
            "name": "The Ship and Shovell",
            "latitude": 51.507582,
            "longitude": -0.124827
        },
        {
            "name": "Lord Clyde",
            "latitude": 51.502349,
            "longitude": -0.095988
        },
        {
            "name": "The Charles Dickens",
            "latitude": 51.503754,
            "longitude": -0.099834
        },
        {
            "name": "Rose & Crown",
            "latitude": 51.505733,
            "longitude": -0.105746
        },
        {
            "name": "Gordons Wine Bar",
            "latitude": 51.507893,
            "longitude": -0.123259
        },
        {
            "name": "The Kings Arms",
            "latitude": 51.504513,
            "longitude": -0.109119
        },
        {
            "name": "The White Hart",
            "latitude": 51.504816,
            "longitude": -0.110664
        },
        {
            "name": "The Harp",
            "latitude": 51.509702,
            "longitude": -0.125863
        }
    ]
}
